{
"type": "FeatureCollection",
"features": [
{ "type": "Feature", "properties": { "main_type": "診所", "dist": "中正區", "name": "醫療財團法人徐元智先生醫藥基金會遠東聯合診所", "address": "臺北市中正區永綏街8至14號" }, "geometry": { "type": "Point", "coordinates": [ 121.5110354, 25.04300291 ] } },
{ "type": "Feature", "properties": { "main_type": "診所", "dist": "中正區", "name": "祈新婦產科診所", "address": "臺北市中正區懷寧街78號9、10樓" }, "geometry": { "type": "Point", "coordinates": [ 121.5139896, 25.04310023 ] } },
{ "type": "Feature", "properties": { "main_type": "診所", "dist": "中正區", "name": "江恩婦產科診所", "address": "臺北市中正區許昌街8號" }, "geometry": { "type": "Point", "coordinates": [ 121.5169585, 25.04544025 ] } },
{ "type": "Feature", "properties": { "main_type": "診所", "dist": "中正區", "name": "小禾馨懷寧小兒專科診所", "address": "臺北市中正區重慶南路一段99號2樓" }, "geometry": { "type": "Point", "coordinates": [ 121.5133326, 25.04310036 ] } },
{ "type": "Feature", "properties": { "main_type": "醫院", "dist": "中正區", "name": "國立台灣大學醫學院附設醫院", "address": "臺北市中正區中山南路７、８號；常德街１號" }, "geometry": { "type": "Point", "coordinates": [ 121.5183428, 25.03553921 ] } },
{ "type": "Feature", "properties": { "main_type": "診所", "dist": "中正區", "name": "吉星診所", "address": "臺北市中正區青島東路４－５號１樓" }, "geometry": { "type": "Point", "coordinates": [ 121.5216651, 25.04384249 ] } },
{ "type": "Feature", "properties": { "main_type": "診所", "dist": "中正區", "name": "柯滄銘婦產科診所", "address": "臺北市中正區林森南路10號、10之1號、10號2樓、12號2樓、10號4樓、10號4樓之2" }, "geometry": { "type": "Point", "coordinates": [ 121.5226184, 25.04274482 ] } },
{ "type": "Feature", "properties": { "main_type": "診所", "dist": "中正區", "name": "蕙瑛婦產科診所", "address": "臺北市中正區忠孝西路一段五十號二十四樓之二十四" }, "geometry": { "type": "Point", "coordinates": [ 121.515823, 25.04630433 ] } },
{ "type": "Feature", "properties": { "main_type": "診所", "dist": "中正區", "name": "同泰診所", "address": "臺北市中正區汀州路二段１３６號" }, "geometry": { "type": "Point", "coordinates": [ 121.5208735, 25.0244653 ] } },
{ "type": "Feature", "properties": { "main_type": "診所", "dist": "中正區", "name": "宏孕診所", "address": "臺北市中正區新生南路1段56號14、15樓" }, "geometry": { "type": "Point", "coordinates": [ 121.5325038, 25.04119528 ] } },
{ "type": "Feature", "properties": { "main_type": "診所", "dist": "中正區", "name": "禾馨婦產科診所", "address": "臺北市中正區懷寧街78號、78號2樓" }, "geometry": { "type": "Point", "coordinates": [ 121.5139896, 25.04310023 ] } },
{ "type": "Feature", "properties": { "main_type": "醫院", "dist": "大同區", "name": "臺北市立聯合醫院", "address": "臺北市大同區鄭州路145號" }, "geometry": { "type": "Point", "coordinates": [ 121.5088874, 25.05069244 ] } },
{ "type": "Feature", "properties": { "main_type": "醫院", "dist": "大同區", "name": "臺北市立聯合醫院附設大同門診部", "address": "臺北市大同區鄭州路145號" }, "geometry": { "type": "Point", "coordinates": [ 121.5088874, 25.05069244 ] } },
{ "type": "Feature", "properties": { "main_type": "診所", "dist": "大同區", "name": "聖心婦家醫診所", "address": "臺北市大同區保安街1之1號" }, "geometry": { "type": "Point", "coordinates": [ 121.512069963622878, 25.058819993892129 ] } },
{ "type": "Feature", "properties": { "main_type": "診所", "dist": "大同區", "name": "黃隆慶婦產科診所", "address": "臺北市大同區歸綏街181號2樓之1" }, "geometry": { "type": "Point", "coordinates": [ 121.5131454, 25.05827692 ] } },
{ "type": "Feature", "properties": { "main_type": "診所", "dist": "大同區", "name": "梅約診所", "address": "臺北市大同區長安西路88號1、2、3樓" }, "geometry": { "type": "Point", "coordinates": [ 121.5190291, 25.05034096 ] } },
{ "type": "Feature", "properties": { "main_type": "診所", "dist": "大同區", "name": "紘成診所", "address": "臺北市大同區長安西路35號2樓" }, "geometry": { "type": "Point", "coordinates": [ 121.5149035, 25.05250234 ] } },
{ "type": "Feature", "properties": { "main_type": "診所", "dist": "中山區", "name": "佑昇診所", "address": "臺北市中山區長安東路二段88號8樓" }, "geometry": { "type": "Point", "coordinates": [ 121.5343978, 25.0483277 ] } },
{ "type": "Feature", "properties": { "main_type": "診所", "dist": "中山區", "name": "孕醫診所", "address": "臺北市中山區松江路318號2樓" }, "geometry": { "type": "Point", "coordinates": [ 121.5328876, 25.06067159 ] } },
{ "type": "Feature", "properties": { "main_type": "診所", "dist": "中山區", "name": "繼承婦產科診所", "address": "臺北市中山區松江路276號5樓" }, "geometry": { "type": "Point", "coordinates": [ 121.532939980520382, 25.059809980476189 ] } },
{ "type": "Feature", "properties": { "main_type": "診所", "dist": "中山區", "name": "康心美婦診所", "address": "臺北市中山區農安街14號2樓、雙城街17之4號2樓" }, "geometry": { "type": "Point", "coordinates": [ 121.5244107, 25.06485334 ] } },
{ "type": "Feature", "properties": { "main_type": "診所", "dist": "中山區", "name": "雙連婦產科小兒科診所", "address": "臺北市中山區民生西路30號4樓" }, "geometry": { "type": "Point", "coordinates": [ 121.5216361, 25.05763827 ] } },
{ "type": "Feature", "properties": { "main_type": "診所", "dist": "中山區", "name": "黃建榮婦產科診所", "address": "臺北市中山區南京東路二段100號11樓、11樓之1、11樓之2、11樓之3、11樓之4及11樓之5" }, "geometry": { "type": "Point", "coordinates": [ 121.5318639, 25.05185676 ] } },
{ "type": "Feature", "properties": { "main_type": "診所", "dist": "中山區", "name": "四季和安婦幼診所", "address": "臺北市中山區林森北路452號地下1樓、458號及458號3樓、460號及460號2樓、錦州街23巷3號3樓" }, "geometry": { "type": "Point", "coordinates": [ 121.5253996, 25.05070454 ] } },
{ "type": "Feature", "properties": { "main_type": "診所", "dist": "中山區", "name": "送子鳥11診所", "address": "臺北市中山區樂群二路187號、189號、189號2樓、189號2樓之1" }, "geometry": { "type": "Point", "coordinates": [ 121.5581866, 25.08014333 ] } },
{ "type": "Feature", "properties": { "main_type": "診所", "dist": "中山區", "name": "生基婦產科診所", "address": "臺北市中山區長安東路二段108號2樓、2樓之1、2樓之2、2樓之3、2樓之4" }, "geometry": { "type": "Point", "coordinates": [ 121.5352797, 25.04831725 ] } },
{ "type": "Feature", "properties": { "main_type": "醫院", "dist": "中山區", "name": "台灣基督長老教會馬偕醫療財團法人馬偕紀念醫院", "address": "臺北市中山區中山北路二段９２號" }, "geometry": { "type": "Point", "coordinates": [ 121.522558, 25.05888423 ] } },
{ "type": "Feature", "properties": { "main_type": "醫院", "dist": "中山區", "name": "協和婦女醫院", "address": "臺北市中山區松江路85巷5號1，2，3，4樓、93巷6號1，2，4樓" }, "geometry": { "type": "Point", "coordinates": [ 121.5339434, 25.05027331 ] } },
{ "type": "Feature", "properties": { "main_type": "診所", "dist": "中山區", "name": "生泉婦產科診所", "address": "臺北市中山區民生東路一段30號3、4、5樓" }, "geometry": { "type": "Point", "coordinates": [ 121.5241438, 25.05789291 ] } },
{ "type": "Feature", "properties": { "main_type": "診所", "dist": "中山區", "name": "曾婦產科診所", "address": "臺北市中山區長安東路二段11之1號〈實際營業場所在一樓〉" }, "geometry": { "type": "Point", "coordinates": [ 121.5306466, 25.04859748 ] } },
{ "type": "Feature", "properties": { "main_type": "診所", "dist": "中山區", "name": "蕭繁雄婦產科診所", "address": "臺北市中山區中山北路二段１００號" }, "geometry": { "type": "Point", "coordinates": [ 121.5227085, 25.05992011 ] } },
{ "type": "Feature", "properties": { "main_type": "診所", "dist": "中山區", "name": "黃中豪婦產科診所", "address": "臺北市中山區吉林路１３１號２Ｆ" }, "geometry": { "type": "Point", "coordinates": [ 121.5303186, 25.05773648 ] } },
{ "type": "Feature", "properties": { "main_type": "診所", "dist": "中山區", "name": "賴國良婦產科診所", "address": "臺北市中山區錦西街１之５號" }, "geometry": { "type": "Point", "coordinates": [ 121.5223246, 25.0603928 ] } },
{ "type": "Feature", "properties": { "main_type": "診所", "dist": "中山區", "name": "趙素芳婦產科診所", "address": "臺北市中山區長安東路二段一七八之六號二樓" }, "geometry": { "type": "Point", "coordinates": [ 121.541065, 25.04821175 ] } },
{ "type": "Feature", "properties": { "main_type": "診所", "dist": "中山區", "name": "木生婦幼診所", "address": "臺北市中山區長安東路二段90號1-4樓、88號4樓" }, "geometry": { "type": "Point", "coordinates": [ 121.5344365, 25.04832709 ] } },
{ "type": "Feature", "properties": { "main_type": "診所", "dist": "中山區", "name": "富生婦產科診所", "address": "臺北市中山區吉林路１５７號" }, "geometry": { "type": "Point", "coordinates": [ 121.5303444, 25.05876664 ] } },
{ "type": "Feature", "properties": { "main_type": "診所", "dist": "中山區", "name": "歐婦產科診所", "address": "臺北市中山區民生東路二段８０號" }, "geometry": { "type": "Point", "coordinates": [ 121.5304937, 25.05785104 ] } },
{ "type": "Feature", "properties": { "main_type": "診所", "dist": "中山區", "name": "王三郎婦產科診所", "address": "臺北市中山區中山北路二段166號之2" }, "geometry": { "type": "Point", "coordinates": [ 121.5222725, 25.06332017 ] } },
{ "type": "Feature", "properties": { "main_type": "診所", "dist": "中山區", "name": "吳輝明婦產科診所", "address": "臺北市中山區長春路７８號２Ｆ" }, "geometry": { "type": "Point", "coordinates": [ 121.5266704, 25.05481569 ] } },
{ "type": "Feature", "properties": { "main_type": "診所", "dist": "中山區", "name": "李義男婦產科診所", "address": "臺北市中山區中山北路二段７１號４樓" }, "geometry": { "type": "Point", "coordinates": [ 121.5230527, 25.05728556 ] } },
{ "type": "Feature", "properties": { "main_type": "診所", "dist": "中山區", "name": "北安聯合診所", "address": "臺北市中山區北安路569之2號 569之3號  569之4號 569之1號二 樓 569之2號二 樓 569之3號二 樓 569之4號二 樓  " }, "geometry": { "type": "Point", "coordinates": [ 121.5482793, 25.08087746 ] } },
{ "type": "Feature", "properties": { "main_type": "診所", "dist": "中山區", "name": "世珍婦產診所", "address": "臺北市中山區朱崙街四十六號" }, "geometry": { "type": "Point", "coordinates": [ 121.5426752, 25.04983209 ] } },
{ "type": "Feature", "properties": { "main_type": "診所", "dist": "中山區", "name": "蘇宋儒婦產科診所", "address": "臺北市中山區北安路６２４號２樓" }, "geometry": { "type": "Point", "coordinates": [ 121.5491079, 25.08268692 ] } },
{ "type": "Feature", "properties": { "main_type": "診所", "dist": "中山區", "name": "黃大倫婦產科診所", "address": "臺北市中山區長安東路二段一三一之三號一樓二樓" }, "geometry": { "type": "Point", "coordinates": [ 121.5362614, 25.04850641 ] } },
{ "type": "Feature", "properties": { "main_type": "診所", "dist": "中山區", "name": "信義婦產科診所", "address": "臺北市中山區中山北路二段99號6樓之2" }, "geometry": { "type": "Point", "coordinates": [ 121.5231473, 25.05960099 ] } },
{ "type": "Feature", "properties": { "main_type": "醫院", "dist": "松山區", "name": "三軍總醫院松山分院附設民眾診療服務處", "address": "臺北市松山區健康路１３１號" }, "geometry": { "type": "Point", "coordinates": [ 121.5577045, 25.05394015 ] } },
{ "type": "Feature", "properties": { "main_type": "醫院", "dist": "松山區", "name": "長庚醫療財團法人台北長庚紀念醫院", "address": "臺北市松山區敦化北路199號、197號、臺北市松山區敦化北路199巷6號" }, "geometry": { "type": "Point", "coordinates": [ 121.5485556, 25.05023183 ] } },
{ "type": "Feature", "properties": { "main_type": "醫院", "dist": "松山區", "name": "基督復臨安息日會醫療財團法人臺安醫院", "address": "臺北市松山區八德路二段424,426號" }, "geometry": { "type": "Point", "coordinates": [ 121.5444842, 25.04758836 ] } },
{ "type": "Feature", "properties": { "main_type": "醫院", "dist": "松山區", "name": "博仁綜合醫院", "address": "臺北市松山區光復北路66號、68號地下一層、68號、68號2至7樓、68號2樓之1至7樓之1、68號2樓之2至7樓之2" }, "geometry": { "type": "Point", "coordinates": [ 121.557695, 25.04990354 ] } },
{ "type": "Feature", "properties": { "main_type": "診所", "dist": "松山區", "name": "林聰賢婦產科診所", "address": "臺北市松山區八德路四段３４５號２Ｆ" }, "geometry": { "type": "Point", "coordinates": [ 121.5678698, 25.04935862 ] } },
{ "type": "Feature", "properties": { "main_type": "診所", "dist": "松山區", "name": "高國隆婦產科診所", "address": "臺北市松山區八德路四段257號2樓" }, "geometry": { "type": "Point", "coordinates": [ 121.5651473, 25.04904762 ] } },
{ "type": "Feature", "properties": { "main_type": "診所", "dist": "松山區", "name": "美人魚時尚婦產科診所", "address": "臺北市松山區南京東路三段331號9樓" }, "geometry": { "type": "Point", "coordinates": [ 121.5472863, 25.05198864 ] } },
{ "type": "Feature", "properties": { "main_type": "診所", "dist": "松山區", "name": "瑞麗嘉健康美學慶中診所", "address": "臺北市松山區南京東路三段259號5樓" }, "geometry": { "type": "Point", "coordinates": [ 121.544919983271939, 25.052020007303 ] } },
{ "type": "Feature", "properties": { "main_type": "診所", "dist": "大安區", "name": "台灣地區婦幼衛生中心醫療財團法人婦幼保健診所", "address": "臺北市大安區復興南路1段285號9樓" }, "geometry": { "type": "Point", "coordinates": [ 121.5438631, 25.03545365 ] } },
{ "type": "Feature", "properties": { "main_type": "診所", "dist": "大安區", "name": "愛群兒童成長診所", "address": "臺北市大安區信義路三段170號2樓、170號2樓之1、172號2樓、172號2樓之1" }, "geometry": { "type": "Point", "coordinates": [ 121.5420014, 25.0331509 ] } },
{ "type": "Feature", "properties": { "main_type": "診所", "dist": "大安區", "name": "忠孝安媞婦產科診所", "address": "臺北市大安區忠孝東路4段59號7樓之4" }, "geometry": { "type": "Point", "coordinates": [ 121.5458064, 25.04179209 ] } },
{ "type": "Feature", "properties": { "main_type": "診所", "dist": "大安區", "name": "幸福婦產科診所", "address": "臺北市大安區忠孝東路4段235號12樓" }, "geometry": { "type": "Point", "coordinates": [ 121.5537779, 25.04162081 ] } },
{ "type": "Feature", "properties": { "main_type": "診所", "dist": "大安區", "name": "楊鵬生婦產科診所", "address": "臺北市大安區信義路二段72號2樓" }, "geometry": { "type": "Point", "coordinates": [ 121.543820026118226, 25.032454989865634 ] } },
{ "type": "Feature", "properties": { "main_type": "診所", "dist": "大安區", "name": "宜蘊婦產科診所", "address": "臺北市大安區信義路三段149號15樓" }, "geometry": { "type": "Point", "coordinates": [ 121.542069968554244, 25.033629986007526 ] } },
{ "type": "Feature", "properties": { "main_type": "診所", "dist": "大安區", "name": "和平婦產科診所", "address": "臺北市大安區和平東路1段180號5樓" }, "geometry": { "type": "Point", "coordinates": [ 121.5295934, 25.02621655 ] } },
{ "type": "Feature", "properties": { "main_type": "診所", "dist": "大安區", "name": "華育婦產科診所", "address": "臺北市大安區敦化南路二段39號12樓之1" }, "geometry": { "type": "Point", "coordinates": [ 121.5491845, 25.03165991 ] } },
{ "type": "Feature", "properties": { "main_type": "診所", "dist": "大安區", "name": "鄢源貴婦產科診所", "address": "臺北市大安區信義路四段199巷2號5樓之1" }, "geometry": { "type": "Point", "coordinates": [ 121.551530035935116, 25.033559997116015 ] } },
{ "type": "Feature", "properties": { "main_type": "診所", "dist": "大安區", "name": "謝婦產科診所", "address": "臺北市大安區忠孝東路四段311號3樓之1" }, "geometry": { "type": "Point", "coordinates": [ 121.5558017, 25.0415936 ] } },
{ "type": "Feature", "properties": { "main_type": "診所", "dist": "大安區", "name": "愛群婦產科診所", "address": "臺北市大安區信義路三段178號2樓、7樓" }, "geometry": { "type": "Point", "coordinates": [ 121.5422654, 25.03319964 ] } },
{ "type": "Feature", "properties": { "main_type": "診所", "dist": "大安區", "name": "禾馨新生婦幼診所", "address": "臺北市大安區新生南路三段2號、2號2樓、2號3樓" }, "geometry": { "type": "Point", "coordinates": [ 121.5346298, 25.02577881 ] } },
{ "type": "Feature", "properties": { "main_type": "診所", "dist": "大安區", "name": "林慧雯婦產科診所", "address": "臺北市大安區忠孝東路4段210之1號2樓" }, "geometry": { "type": "Point", "coordinates": [ 121.5525802, 25.04123261 ] } },
{ "type": "Feature", "properties": { "main_type": "診所", "dist": "大安區", "name": "同心婦產科診所", "address": "臺北市大安區東豐街２６號" }, "geometry": { "type": "Point", "coordinates": [ 121.5454038, 25.03594418 ] } },
{ "type": "Feature", "properties": { "main_type": "診所", "dist": "大安區", "name": "陳瑞鵬婦產科診所", "address": "臺北市大安區信義路四段１７７號２樓" }, "geometry": { "type": "Point", "coordinates": [ 121.5506355, 25.03342465 ] } },
{ "type": "Feature", "properties": { "main_type": "診所", "dist": "大安區", "name": "康婕婦產科診所", "address": "臺北市大安區光復南路240巷23號2樓" }, "geometry": { "type": "Point", "coordinates": [ 121.5564672, 25.04065765 ] } },
{ "type": "Feature", "properties": { "main_type": "診所", "dist": "大安區", "name": "金郁婦產科診所", "address": "臺北市大安區忠孝東路四段177號7樓之4" }, "geometry": { "type": "Point", "coordinates": [ 121.5506474, 25.04169815 ] } },
{ "type": "Feature", "properties": { "main_type": "診所", "dist": "大安區", "name": "忠孝世賓婦產科診所", "address": "臺北市大安區忠孝東路四段176號4樓" }, "geometry": { "type": "Point", "coordinates": [ 121.5513463, 25.04126615 ] } },
{ "type": "Feature", "properties": { "main_type": "診所", "dist": "大安區", "name": "薇娜時尚美學診所", "address": "臺北市大安區忠孝東路4段53之2號" }, "geometry": { "type": "Point", "coordinates": [ 121.5454341, 25.04181223 ] } },
{ "type": "Feature", "properties": { "main_type": "診所", "dist": "大安區", "name": "莊國豐婦產科診所", "address": "臺北市大安區和平東路1段8號2樓" }, "geometry": { "type": "Point", "coordinates": [ 121.5231852, 25.02683541 ] } },
{ "type": "Feature", "properties": { "main_type": "診所", "dist": "大安區", "name": "滿意婦產科診所", "address": "臺北市大安區羅斯福路三段二七一號三樓及三樓之一" }, "geometry": { "type": "Point", "coordinates": [ 121.5307028, 25.01858722 ] } },
{ "type": "Feature", "properties": { "main_type": "診所", "dist": "大安區", "name": "許世賓婦產科診所", "address": "臺北市大安區和平東路一段169號2、4樓，171號2樓" }, "geometry": { "type": "Point", "coordinates": [ 121.5317893, 25.02653119 ] } },
{ "type": "Feature", "properties": { "main_type": "診所", "dist": "大安區", "name": "周大中婦產科診所", "address": "臺北市大安區敦化南路二段四十六號二樓" }, "geometry": { "type": "Point", "coordinates": [ 121.5482707, 25.03130757 ] } },
{ "type": "Feature", "properties": { "main_type": "醫院", "dist": "大安區", "name": "中山醫療社團法人中山醫院", "address": "臺北市大安區仁愛路四段112巷11號" }, "geometry": { "type": "Point", "coordinates": [ 121.5497106, 25.03655173 ] } },
{ "type": "Feature", "properties": { "main_type": "醫院", "dist": "大安區", "name": "國泰醫療財團法人國泰綜合醫院", "address": "臺北市大安區仁愛路四段266巷6號，280號" }, "geometry": { "type": "Point", "coordinates": [ 121.5528014, 25.03717848 ] } },
{ "type": "Feature", "properties": { "main_type": "醫院", "dist": "大安區", "name": "中心診所醫療財團法人中心綜合醫院", "address": "臺北市大安區忠孝東路四段７７號" }, "geometry": { "type": "Point", "coordinates": [ 121.5473297, 25.04186487 ] } },
{ "type": "Feature", "properties": { "main_type": "醫院", "dist": "大安區", "name": "宏恩醫療財團法人宏恩綜合醫院", "address": "臺北市大安區仁愛路四段７１巷１號" }, "geometry": { "type": "Point", "coordinates": [ 121.5470295, 25.03849645 ] } },
{ "type": "Feature", "properties": { "main_type": "醫院", "dist": "大安區", "name": "秀傳醫院", "address": "臺北市大安區光復南路116巷1、3、5號1至4樓及地下1樓" }, "geometry": { "type": "Point", "coordinates": [ 121.5568623, 25.04311217 ] } },
{ "type": "Feature", "properties": { "main_type": "診所", "dist": "大安區", "name": "張少萌婦產科診所", "address": "臺北市大安區信義路四段１９９巷２號４樓之１之２" }, "geometry": { "type": "Point", "coordinates": [ 121.5515268, 25.03356297 ] } },
{ "type": "Feature", "properties": { "main_type": "診所", "dist": "大安區", "name": "陳秀鳳婦產科診所", "address": "臺北市大安區和平東路二段１９１號２樓" }, "geometry": { "type": "Point", "coordinates": [ 121.542117, 25.025254 ] } },
{ "type": "Feature", "properties": { "main_type": "診所", "dist": "大安區", "name": "吳坤光婦產科診所", "address": "臺北市大安區信義路四段５９號" }, "geometry": { "type": "Point", "coordinates": [ 121.5454398, 25.03353139 ] } },
{ "type": "Feature", "properties": { "main_type": "診所", "dist": "大安區", "name": "博全婦產科診所", "address": "臺北市大安區大安路一段18號、16巷1、1-1、3、3-1、5、5-1號2樓" }, "geometry": { "type": "Point", "coordinates": [ 121.5453171, 25.03651613 ] } },
{ "type": "Feature", "properties": { "main_type": "診所", "dist": "大安區", "name": "馬大勳婦產科診所", "address": "臺北市大安區安和路一段１１號２樓－１" }, "geometry": { "type": "Point", "coordinates": [ 121.54984, 25.03966828 ] } },
{ "type": "Feature", "properties": { "main_type": "診所", "dist": "大安區", "name": "張尚哲婦產科診所", "address": "臺北市大安區忠孝東路四段２１０號４Ｆ" }, "geometry": { "type": "Point", "coordinates": [ 121.5524928, 25.04123425 ] } },
{ "type": "Feature", "properties": { "main_type": "診所", "dist": "大安區", "name": "林正宗婦產科診所", "address": "臺北市大安區和平東路三段100號2樓" }, "geometry": { "type": "Point", "coordinates": [ 121.5513263, 25.02428172 ] } },
{ "type": "Feature", "properties": { "main_type": "診所", "dist": "大安區", "name": "李婦產科診所", "address": "臺北市大安區金山南路2段31巷9號、9號5樓" }, "geometry": { "type": "Point", "coordinates": [ 121.5278216, 25.03300755 ] } },
{ "type": "Feature", "properties": { "main_type": "診所", "dist": "大安區", "name": "劉賢平婦產科診所", "address": "臺北市大安區延吉街１７５號２樓" }, "geometry": { "type": "Point", "coordinates": [ 121.5554566, 25.03827723 ] } },
{ "type": "Feature", "properties": { "main_type": "診所", "dist": "大安區", "name": "陳惠章婦產科家庭醫學科診所", "address": "臺北市大安區羅斯福路三段二六一號二樓" }, "geometry": { "type": "Point", "coordinates": [ 121.5303123, 25.01897851 ] } },
{ "type": "Feature", "properties": { "main_type": "診所", "dist": "萬華區", "name": "益生婦產科診所", "address": "臺北市萬華區萬大路４０６－１號" }, "geometry": { "type": "Point", "coordinates": [ 121.4983056, 25.02143404 ] } },
{ "type": "Feature", "properties": { "main_type": "診所", "dist": "萬華區", "name": "聖約翰婦產科診所", "address": "臺北市萬華區東園街175號" }, "geometry": { "type": "Point", "coordinates": [ 121.4973536, 25.02416846 ] } },
{ "type": "Feature", "properties": { "main_type": "診所", "dist": "萬華區", "name": "大元婦產科診所", "address": "臺北市萬華區西園路二段１４０巷８號" }, "geometry": { "type": "Point", "coordinates": [ 121.4958886, 25.03050023 ] } },
{ "type": "Feature", "properties": { "main_type": "診所", "dist": "萬華區", "name": "中山婦產科診所", "address": "臺北市萬華區桂林路１１４號" }, "geometry": { "type": "Point", "coordinates": [ 121.4996021, 25.03837003 ] } },
{ "type": "Feature", "properties": { "main_type": "診所", "dist": "萬華區", "name": "城中瑪麗安婦產科診所", "address": "臺北市萬華區成都路4號2樓、中華路一段158號(實際開業地址2樓)" }, "geometry": { "type": "Point", "coordinates": [ 121.50291, 25.04366506 ] } },
{ "type": "Feature", "properties": { "main_type": "醫院", "dist": "萬華區", "name": "國立臺灣大學醫學院附設醫院北護分院", "address": "臺北市萬華區康定路３７號、臺北市萬華區內江街87號 " }, "geometry": { "type": "Point", "coordinates": [ 121.5025511, 25.04222858 ] } },
{ "type": "Feature", "properties": { "main_type": "醫院", "dist": "萬華區", "name": "西園醫療社團法人西園醫院", "address": "臺北市萬華區西園路二段266、268、270、272、276號、185、187、189號" }, "geometry": { "type": "Point", "coordinates": [ 121.4945402, 25.0277877 ] } },
{ "type": "Feature", "properties": { "main_type": "醫院", "dist": "萬華區", "name": "財團法人台灣省私立台北仁濟院附設仁濟醫院", "address": "臺北市萬華區廣州街２００，２４３號" }, "geometry": { "type": "Point", "coordinates": [ 121.5042335, 25.03642709 ] } },
{ "type": "Feature", "properties": { "main_type": "診所", "dist": "信義區", "name": "信義邱婦產科診所", "address": "臺北市信義區虎林街198號" }, "geometry": { "type": "Point", "coordinates": [ 121.5768828, 25.03844073 ] } },
{ "type": "Feature", "properties": { "main_type": "診所", "dist": "信義區", "name": "彭婦產科診所", "address": "臺北市信義區永吉路185之4號、185之1號2樓" }, "geometry": { "type": "Point", "coordinates": [ 121.5725932, 25.04574026 ] } },
{ "type": "Feature", "properties": { "main_type": "診所", "dist": "信義區", "name": "王知行婦產科診所", "address": "臺北市信義區永吉路308號" }, "geometry": { "type": "Point", "coordinates": [ 121.5750003, 25.04536022 ] } },
{ "type": "Feature", "properties": { "main_type": "醫院", "dist": "信義區", "name": "臺北醫學大學附設醫院", "address": "臺北市信義區吳興街２５2號、250號" }, "geometry": { "type": "Point", "coordinates": [ 121.5636377, 25.02663801 ] } },
{ "type": "Feature", "properties": { "main_type": "診所", "dist": "信義區", "name": "王家瑋婦產科診所", "address": "臺北市信義區基隆路二段56號、56號地下層、58號、60號、62號" }, "geometry": { "type": "Point", "coordinates": [ 121.5583434, 25.03130614 ] } },
{ "type": "Feature", "properties": { "main_type": "診所", "dist": "信義區", "name": "臺北婦產科診所", "address": "臺北市信義區松仁路100號14樓之2" }, "geometry": { "type": "Point", "coordinates": [ 121.5681262, 25.03446001 ] } },
{ "type": "Feature", "properties": { "main_type": "診所", "dist": "信義區", "name": "松仁婦產科診所", "address": "臺北市信義區松仁路100號14樓之1" }, "geometry": { "type": "Point", "coordinates": [ 121.5681262, 25.03446001 ] } },
{ "type": "Feature", "properties": { "main_type": "診所", "dist": "信義區", "name": "美迪婦產科診所", "address": "臺北市信義區信義路五段18號2樓" }, "geometry": { "type": "Point", "coordinates": [ 121.563699972612653, 25.032670006636849 ] } },
{ "type": "Feature", "properties": { "main_type": "診所", "dist": "信義區", "name": "劉教授婦產科診所", "address": "臺北市信義區忠孝東路五段236巷32號1樓" }, "geometry": { "type": "Point", "coordinates": [ 121.571750036241383, 25.039250010177142 ] } },
{ "type": "Feature", "properties": { "main_type": "診所", "dist": "士林區", "name": "盧金成婦產科診所", "address": "臺北市士林區忠誠路一段１７９號２樓" }, "geometry": { "type": "Point", "coordinates": [ 121.5304871, 25.10804748 ] } },
{ "type": "Feature", "properties": { "main_type": "診所", "dist": "士林區", "name": "何英世婦產科診所", "address": "臺北市士林區文林路４８２號１樓" }, "geometry": { "type": "Point", "coordinates": [ 121.5244148, 25.09616722 ] } },
{ "type": "Feature", "properties": { "main_type": "醫院", "dist": "士林區", "name": "新光醫療財團法人新光吳火獅紀念醫院", "address": "臺北市士林區文昌路95號及士商路51號、51號2樓、51號3樓、51號4樓、51號5樓、51號6樓、51號7樓、53號、55號、57號" }, "geometry": { "type": "Point", "coordinates": [ 121.5202887, 25.0962409 ] } },
{ "type": "Feature", "properties": { "main_type": "診所", "dist": "士林區", "name": "永恆美診所", "address": "臺北市士林區忠誠路一段58號(實際使用：1樓及地下1、2層)" }, "geometry": { "type": "Point", "coordinates": [ 121.5271091, 25.10471577 ] } },
{ "type": "Feature", "properties": { "main_type": "診所", "dist": "士林區", "name": "佩佩婦幼診所", "address": "臺北市士林區中山北路六段182號、182號2樓" }, "geometry": { "type": "Point", "coordinates": [ 121.5252009, 25.10758681 ] } },
{ "type": "Feature", "properties": { "main_type": "診所", "dist": "士林區", "name": "鄭福山婦產科診所", "address": "臺北市士林區中山北路六段256號" }, "geometry": { "type": "Point", "coordinates": [ 121.5255075, 25.1094694 ] } },
{ "type": "Feature", "properties": { "main_type": "診所", "dist": "士林區", "name": "黃金喜婦產科診所", "address": "臺北市士林區延平北路五段２０１號" }, "geometry": { "type": "Point", "coordinates": [ 121.5099274, 25.08360251 ] } },
{ "type": "Feature", "properties": { "main_type": "診所", "dist": "士林區", "name": "李文達婦產科診所", "address": "臺北市士林區文林路458號(實際使用：1樓)" }, "geometry": { "type": "Point", "coordinates": [ 121.5245695, 25.09560137 ] } },
{ "type": "Feature", "properties": { "main_type": "診所", "dist": "北投區", "name": "蔡賡禧婦產科診所", "address": "臺北市北投區石牌路一段72號" }, "geometry": { "type": "Point", "coordinates": [ 121.5114009, 25.11353597 ] } },
{ "type": "Feature", "properties": { "main_type": "診所", "dist": "北投區", "name": "張智郁婦產科診所", "address": "臺北市北投區石牌路二段三三二之二號一樓" }, "geometry": { "type": "Point", "coordinates": [ 121.5244653, 25.12242521 ] } },
{ "type": "Feature", "properties": { "main_type": "醫院", "dist": "北投區", "name": "臺北榮民總醫院", "address": "臺北市北投區石牌路二段201號、322號" }, "geometry": { "type": "Point", "coordinates": [ 121.5191658, 25.11918228 ] } },
{ "type": "Feature", "properties": { "main_type": "醫院", "dist": "北投區", "name": "振興醫療財團法人振興醫院", "address": "臺北市北投區振興街４５號" }, "geometry": { "type": "Point", "coordinates": [ 121.5224005, 25.11754255 ] } },
{ "type": "Feature", "properties": { "main_type": "醫院", "dist": "北投區", "name": "醫療財團法人辜公亮基金會和信治癌中心醫院", "address": "臺北市北投區立德路１２５號" }, "geometry": { "type": "Point", "coordinates": [ 121.4720113, 25.12834055 ] } },
{ "type": "Feature", "properties": { "main_type": "診所", "dist": "北投區", "name": "清田婦產科家醫科診所", "address": "臺北市北投區中和街二六八號" }, "geometry": { "type": "Point", "coordinates": [ 121.5006579, 25.14019125 ] } },
{ "type": "Feature", "properties": { "main_type": "診所", "dist": "北投區", "name": "佳韻婦產科診所", "address": "臺北市北投區中央南路一段42號2樓" }, "geometry": { "type": "Point", "coordinates": [ 121.5012034, 25.13229244 ] } },
{ "type": "Feature", "properties": { "main_type": "診所", "dist": "內湖區", "name": "國泰醫療財團法人內湖國泰診所", "address": "臺北市內湖區瑞光路504、506號及508號2樓" }, "geometry": { "type": "Point", "coordinates": [ 121.5835776, 25.06928378 ] } },
{ "type": "Feature", "properties": { "main_type": "診所", "dist": "內湖區", "name": "禾馨內湖婦幼診所", "address": "臺北市內湖區民權東路六段42號5樓(之1、之2、之3)、6樓(之1、之2、之3)" }, "geometry": { "type": "Point", "coordinates": [ 121.5816571, 25.06774006 ] } },
{ "type": "Feature", "properties": { "main_type": "診所", "dist": "內湖區", "name": "禾馨民權婦幼診所", "address": "臺北市內湖區民權東路六段42號2樓(之1、之2、之3)、3樓(之1、之2、之3)、4樓(之1、之2、之3)" }, "geometry": { "type": "Point", "coordinates": [ 121.5816571, 25.06774006 ] } },
{ "type": "Feature", "properties": { "main_type": "診所", "dist": "內湖區", "name": "陳德駿婦產科診所", "address": "臺北市內湖區文德路８號２樓" }, "geometry": { "type": "Point", "coordinates": [ 121.5790067, 25.07843062 ] } },
{ "type": "Feature", "properties": { "main_type": "醫院", "dist": "內湖區", "name": "三軍總醫院附設民眾診療服務處", "address": "臺北市內湖區成功路二段325號；臺北市中正區汀州路3段40號" }, "geometry": { "type": "Point", "coordinates": [ 121.5919821, 25.07180042 ] } },
{ "type": "Feature", "properties": { "main_type": "醫院", "dist": "內湖區", "name": "康寧醫療財團法人康寧醫院", "address": "臺北市內湖區成功路五段４２０巷２６號" }, "geometry": { "type": "Point", "coordinates": [ 121.6087792, 25.07595162 ] } },
{ "type": "Feature", "properties": { "main_type": "醫院", "dist": "內湖區", "name": "中國醫藥大學附設醫院臺北分院", "address": "臺北市內湖區內湖路二段360號" }, "geometry": { "type": "Point", "coordinates": [ 121.5905997, 25.08212491 ] } },
{ "type": "Feature", "properties": { "main_type": "診所", "dist": "內湖區", "name": "宋小兒科診所", "address": "臺北市內湖區內湖路二段２５號" }, "geometry": { "type": "Point", "coordinates": [ 121.5795877, 25.07886046 ] } },
{ "type": "Feature", "properties": { "main_type": "診所", "dist": "內湖區", "name": "鍾兆智婦產科診所", "address": "臺北市內湖區東湖路６５號１Ｆ，２Ｆ及地下室" }, "geometry": { "type": "Point", "coordinates": [ 121.6148095, 25.06876242 ] } },
{ "type": "Feature", "properties": { "main_type": "診所", "dist": "內湖區", "name": "鴻文婦產科診所", "address": "臺北市內湖區成功路四段５２號２樓" }, "geometry": { "type": "Point", "coordinates": [ 121.5922805, 25.08227359 ] } },
{ "type": "Feature", "properties": { "main_type": "診所", "dist": "內湖區", "name": "顏鳳麟婦產科診所", "address": "臺北市內湖區成功路四段28號2樓" }, "geometry": { "type": "Point", "coordinates": [ 121.5914888, 25.08154244 ] } },
{ "type": "Feature", "properties": { "main_type": "診所", "dist": "內湖區", "name": "麗心診所", "address": "臺北市內湖區成功路四段2號3樓、6號3樓" }, "geometry": { "type": "Point", "coordinates": [ 121.5908237, 25.08090677 ] } },
{ "type": "Feature", "properties": { "main_type": "診所", "dist": "南港區", "name": "劉聖亞診所", "address": "臺北市南港區興華路８２號１樓" }, "geometry": { "type": "Point", "coordinates": [ 121.6057259, 25.05581325 ] } },
{ "type": "Feature", "properties": { "main_type": "診所", "dist": "南港區", "name": "天慈婦產科診所", "address": "臺北市南港區同德路３７號１樓" }, "geometry": { "type": "Point", "coordinates": [ 121.5843549, 25.04544119 ] } },
{ "type": "Feature", "properties": { "main_type": "診所", "dist": "文山區", "name": "景美蔡登元婦產科診所", "address": "臺北市文山區興隆路二段１８９號" }, "geometry": { "type": "Point", "coordinates": [ 121.5494378, 25.00082992 ] } },
{ "type": "Feature", "properties": { "main_type": "醫院", "dist": "文山區", "name": "臺北市立萬芳醫院－委託財團法人臺北醫學大學辦理", "address": "臺北市文山區興隆路三段111號" }, "geometry": { "type": "Point", "coordinates": [ 121.5583303, 25.00030628 ] } },
{ "type": "Feature", "properties": { "main_type": "診所", "dist": "文山區", "name": "愛文診所", "address": "臺北市文山區興隆路三段79巷3號" }, "geometry": { "type": "Point", "coordinates": [ 121.5565238, 25.00023339 ] } },
{ "type": "Feature", "properties": { "main_type": "診所", "dist": "文山區", "name": "仁荔健康診所", "address": "臺北市文山區興隆路一段258號" }, "geometry": { "type": "Point", "coordinates": [ 121.5449553, 24.99846549 ] } },
{ "type": "Feature", "properties": { "main_type": "診所", "dist": "文山區", "name": "長欣婦產科診所", "address": "臺北市文山區興隆路四段六十號一樓" }, "geometry": { "type": "Point", "coordinates": [ 121.5612284, 24.98541546 ] } }
]
}
